{
  "parks": [
    {
      "name": "Death Valley National Park",
      "lat": 36.24,
      "lng": -116.82,
      "country": "USA",
      "type": "International Dark Sky Park",
      "certified": "2013",
      "area": "13,650 km²"
    },
    {
      "name": "Cherry Springs State Park",
      "lat": 41.66,
      "lng": -77.82,
      "country": "USA",
      "type": "Dark Sky Park",
      "certified": "2008",
      "area": "41.5 km²"
    },
    {
      "name": "Galloway Forest Park",
      "lat": 55.12,
      "lng": -4.41,
      "country": "Scotland",
      "type": "Dark Sky Park",
      "certified": "2009",
      "area": "300 km²"
    },
    {
      "name": "Aoraki Mackenzie",
      "lat": -43.73,
      "lng": 170.10,
      "country": "New Zealand",
      "type": "Dark Sky Reserve",
      "certified": "2012",
      "area": "4,367 km²"
    },
    {
      "name": "Natural Bridges Monument",
      "lat": 37.60,
      "lng": -110.00,
      "country": "USA",
      "type": "Dark Sky Park",
      "certified": "2007",
      "area": "31 km²"
    }
  ]
}