[
  {
    "id": 1,
    "name": "Cherry Springs State Park",
    "designation": "International Dark Sky Park",
    "country": "USA",
    "latitude": 41.4361,
    "longitude": -77.9852,
    "sqm": 21.5,
    "certification_date": "2008-08-01"
  },
  {
    "id": 2,
    "name": "Natural Bridges National Monument",
    "designation": "International Dark Sky Park",
    "country": "USA",
    "latitude": 37.6543,
    "longitude": -110.0000,
    "sqm": 21.8,
    "certification_date": "2007-03-06"
  },
  {
    "id": 3,
    "name": "Exmoor National Park",
    "designation": "International Dark Sky Reserve",
    "country": "UK",
    "latitude": 51.0957,
    "longitude": -3.6934,
    "sqm": 21.2,
    "certification_date": "2011-01-14"
  },
  {
    "id": 4,
    "name": "Aoraki Mackenzie",
    "designation": "International Dark Sky Reserve",
    "country": "New Zealand",
    "latitude": -44.0000,
    "longitude": 170.0000,
    "sqm": 21.6,
    "certification_date": "2012-06-03"
  },
  {
    "id": 5,
    "name": "Pic du Midi",
    "designation": "International Dark Sky Reserve",
    "country": "France",
    "latitude": 42.9346,
    "longitude": 0.1578,
    "sqm": 21.0,
    "certification_date": "2013-01-17"
  }
]