[
  {
    "id": 1,
    "location": "Cherry Springs State Park",
    "latitude": 41.4361,
    "longitude": -77.9852,
    "sqm_value": 21.5,
    "bortle_class": 2,
    "brightness": 21.5,
    "date_observed": "2023-05-15T02:00:00Z",
    "source": "Field Measurement"
  },
  {
    "id": 2,
    "location": "Natural Bridges NM",
    "latitude": 37.6543,
    "longitude": -110.0000,
    "sqm_value": 21.8,
    "bortle_class": 1,
    "brightness": 21.8,
    "date_observed": "2023-06-20T01:30:00Z",
    "source": "Field Measurement"
  },
  {
    "id": 3,
    "location": "Local Suburb",
    "latitude": 40.7128,
    "longitude": -74.0060,
    "sqm_value": 16.2,
    "bortle_class": 6,
    "brightness": 16.2,
    "date_observed": "2023-04-10T23:45:00Z",
    "source": "Citizen Science"
  },
  {
    "id": 4,
    "location": "City Center",
    "latitude": 40.7589,
    "longitude": -73.9851,
    "sqm_value": 13.1,
    "bortle_class": 9,
    "brightness": 13.1,
    "date_observed": "2023-07-01T22:15:00Z",
    "source": "Automated Sensor"
  },
  {
    "id": 5,
    "location": "Rural Area",
    "latitude": 39.8283,
    "longitude": -101.6232,
    "sqm_value": 19.8,
    "bortle_class": 4,
    "brightness": 19.8,
    "date_observed": "2023-08-12T01:20:00Z",
    "source": "Field Measurement"
  }
]